City_ID,City,Lat,Lng,Max Temp,Humidity,Cloudiness,Wind Speed,Country,Date
0,mocimboa,-11.3167,40.35,31.04,46,9,4.67,MZ,1727426432
1,okondja,-0.6549,13.6753,25.0,88,99,1.64,GA,1727426433
2,papatowai,-46.5619,169.4708,6.58,79,99,5.08,NZ,1727426435
3,bilibino,68.0546,166.4372,-5.0,88,86,0.71,RU,1727426436
4,keflavik,64.0049,-22.5624,5.24,87,0,1.54,IS,1727426437
5,albany,42.6001,-73.9662,15.85,81,100,1.13,US,1727426350
6,port alfred,-33.5906,26.891,20.1,73,4,1.79,ZA,1727426440
7,isafjordur,66.0755,-23.124,4.02,75,100,6.17,IS,1727426441
8,avarua,-21.2078,-159.775,22.03,68,75,2.06,CK,1727426443
9,namibe,-15.1961,12.1522,23.52,73,86,3.7,AO,1727426444
10,grytviken,-54.2811,-36.5092,-0.02,86,36,5.05,GS,1727426446
11,nadym,65.5333,72.5167,7.09,80,99,7.07,RU,1727426447
12,georgetown,5.4112,100.3354,31.97,69,20,4.63,MY,1727426448
13,hermanus,-34.4187,19.2345,14.89,81,90,2.51,ZA,1727426450
14,ribeira grande,38.5167,-28.7,23.22,94,75,4.12,PT,1727426451
15,waitangi,-43.9535,-176.5597,8.23,76,32,5.81,NZ,1727426453
16,bajil,15.0584,43.2851,38.15,38,5,3.15,YE,1727426454
17,phon charoen,18.0333,103.1667,31.54,65,59,2.78,TH,1727426455
18,wynyard,-41.0,145.7167,11.22,75,92,3.12,AU,1727426457
19,kavieng,-2.5744,150.7967,28.56,71,88,0.3,PG,1727426458
20,ilulissat,69.2167,-51.1,6.01,65,100,4.12,GL,1727426459
21,bethel,41.3712,-73.414,17.79,90,100,0.45,US,1727426461
22,iqaluit,63.7506,-68.5145,4.85,93,75,0.0,CA,1727426462
23,rio de janeiro,-22.9028,-43.2075,24.0,88,0,4.63,BR,1727426464
24,ushuaia,-54.8,-68.3,1.81,75,40,12.35,AR,1727426361
25,dudinka,69.4058,86.1778,0.85,98,100,5.62,RU,1727426466
26,semey,50.4111,80.2275,8.12,39,75,5.0,KZ,1727426468
27,tiksi,71.6872,128.8694,1.07,98,100,3.62,RU,1727426469
28,whitehorse,60.7161,-135.0538,-0.57,92,0,1.03,CA,1727426430
29,west island,-12.1568,96.8225,27.99,74,75,7.72,CC,1727426472
30,tortoli,39.9256,9.6572,28.41,74,0,3.6,IT,1727426473
31,carnot,4.9409,15.8665,27.0,73,100,1.96,CF,1727426475
32,jatai,-17.8814,-51.7144,25.7,45,99,2.66,BR,1727426476
33,adamstown,-25.066,-130.1015,20.99,93,45,4.52,PN,1727426479
34,aykhal,66.0,111.5,1.97,61,96,3.5,RU,1727426480
35,kemri,28.8167,79.2167,28.19,76,93,6.36,IN,1727426482
36,pangkalanbuun,-2.6833,111.6167,28.67,69,100,1.76,ID,1727426483
37,kodiak,57.79,-152.4072,0.73,86,0,3.09,US,1727426485
38,longyearbyen,78.2186,15.6401,0.91,51,75,8.75,SJ,1727426487
39,college,64.8569,-147.8028,5.25,91,100,3.09,US,1727426489
40,megion,61.0296,76.1136,6.01,55,100,3.12,RU,1727426490
41,invercargill,-46.4,168.35,7.79,85,93,2.68,NZ,1727426441
42,constantia,44.1833,28.65,26.5,67,0,6.74,RO,1727426493
43,taulaga,-11.0553,-171.0883,26.32,79,100,6.69,AS,1727426494
44,vranje,42.5514,21.9003,23.53,46,1,2.62,RS,1727426496
45,grand rapids,42.9634,-85.6681,14.47,93,0,3.09,US,1727426497
46,ambovombe,-25.1667,46.0833,29.28,52,0,1.51,MG,1727426500
47,yellowknife,62.456,-114.3525,5.31,98,75,3.09,CA,1727426501
48,port-aux-francais,-49.35,70.2167,3.22,75,42,15.49,TF,1727426503
49,udachny,66.4167,112.4,3.32,58,99,3.33,RU,1727426504
50,aleg,17.0481,-13.9209,29.92,60,100,2.53,MR,1727426505
51,touros,-5.1989,-35.4608,25.01,79,56,5.63,BR,1727426508
52,edinburgh of the seven seas,-37.0676,-12.3116,11.6,83,100,8.38,SH,1727426510
53,oral,51.2333,51.3667,18.99,19,0,1.0,KZ,1727426511
54,olonkinbyen,70.9221,-8.7187,1.2,82,100,10.59,SJ,1727426513
55,saudarkrokur,65.7461,-19.6394,2.82,89,97,1.32,IS,1727426514
56,porto novo,6.4965,2.6036,26.9,66,73,3.37,BJ,1727426515
57,nemuro,43.3236,145.575,16.78,98,98,4.21,JP,1727426517
58,punta arenas,-53.15,-70.9167,3.06,75,0,15.95,CL,1727426518
59,ghadamis,30.1337,9.5007,33.55,26,36,5.56,LY,1727426519
60,blackmans bay,-43.0167,147.3167,11.07,75,69,0.45,AU,1727426521
61,anadyr,64.75,177.4833,3.28,74,100,3.0,RU,1727426522
62,la sarre,48.8002,-79.1996,9.21,95,1,1.2,CA,1727426524
63,al mindak,20.1588,41.2834,27.58,22,48,1.02,SA,1727426525
64,mar del plata,-38.0023,-57.5575,7.15,80,0,2.24,AR,1727426526
65,ust'-kulom,61.6864,53.6902,16.46,43,100,4.5,RU,1727426528
66,nantucket,41.2835,-70.0995,17.06,94,100,3.67,US,1727426529
67,lebu,-37.6167,-73.65,5.66,87,99,1.59,CL,1727426530
68,qaqortoq,60.7167,-46.0333,3.57,86,31,2.14,GL,1727426532
69,puerto natales,-51.7236,-72.4875,2.08,98,100,3.14,CL,1727426533
70,daru,-9.0763,143.2092,25.86,89,90,4.78,PG,1727426535
71,east london,-33.0153,27.9116,20.52,64,20,2.06,ZA,1727426536
72,gaspe,48.8334,-64.4819,12.12,94,100,4.12,CA,1727426537
73,hinthada,17.6333,95.4667,31.13,71,69,2.54,MM,1727426539
74,bhigvan,18.3167,74.7667,28.9,62,93,7.64,IN,1727426540
75,khandyga,62.6667,135.6,12.5,65,100,5.31,RU,1727426542
76,vorgashor,67.5833,63.95,12.75,80,89,7.84,RU,1727426543
77,port elizabeth,-33.918,25.5701,21.84,62,0,1.03,ZA,1727426544
78,uturoa,-16.7333,-151.4333,26.16,83,14,3.37,PF,1727426546
79,kyakhta,50.3508,106.4494,10.66,28,87,6.07,RU,1727426547
80,saipan,15.1355,145.701,29.39,84,75,6.69,MP,1727426549
81,alaghsas,17.0187,8.0168,33.94,31,8,3.09,NE,1727426550
82,bontang,0.1333,117.5,28.61,69,14,2.22,ID,1727426551
83,barcelos,41.5388,-8.6151,16.0,71,20,4.37,PT,1727426554
84,kingscliff,-28.2667,153.5667,17.89,77,75,8.75,AU,1727426556
85,shuangcheng,45.35,126.2833,16.24,60,69,1.96,CN,1727426557
86,ancud,-41.8697,-73.8203,6.02,89,100,6.41,CL,1727426558
87,al kharijah,25.4514,30.5464,32.52,28,0,5.13,EG,1727426560
88,singkil,-7.9855,111.4161,31.89,55,83,2.23,ID,1727426561
89,lihue,21.9789,-159.3672,25.77,73,100,5.14,US,1727426278
90,le morne-rouge,14.7667,-61.1333,22.76,80,95,4.52,MQ,1727426564
91,albu kamal,34.45,40.9186,35.02,16,0,5.95,SY,1727426565
92,palikir - national government center,6.9248,158.1611,27.41,83,40,1.54,FM,1727426567
93,san antonio de pale,-1.4014,5.6325,25.16,85,88,5.11,GQ,1727426568
94,badger,64.8,-147.5333,5.2,93,100,3.09,US,1727426569
95,puerto ayora,-0.7393,-90.3518,18.64,100,97,1.34,EC,1727426571
96,villaquilambre,42.6469,-5.5584,11.87,100,20,5.14,ES,1727426572
97,inarajan village,13.2736,144.7484,29.54,78,88,4.06,GU,1727426574
98,selkirk,50.1436,-96.8845,15.66,69,0,1.34,CA,1727426575
99,taoudenni,22.6783,-3.9836,36.34,22,91,6.67,ML,1727426576
100,cidreira,-30.1811,-50.2056,16.53,90,94,8.45,BR,1727426578
101,maumere,-8.6199,122.2111,28.05,72,33,0.7,ID,1727426579
102,acarau,-2.8856,-40.12,25.2,76,97,7.6,BR,1727426581
103,tarifa,36.0139,-5.607,21.97,69,100,4.44,ES,1727426582
104,tadine,-21.55,167.8833,20.93,72,96,3.64,NC,1727426583
105,bredasdorp,-34.5322,20.0403,18.88,63,69,1.78,ZA,1727426585
106,wailua homesteads,22.0669,-159.378,25.44,71,100,5.14,US,1727426586
107,floro,61.5996,5.0328,7.98,66,40,5.14,NO,1727426587
108,colares,38.7992,-9.4469,20.74,73,20,4.12,PT,1727426589
109,utrik,11.2278,169.8474,28.4,79,90,6.82,MH,1727426590
110,columbus,39.9612,-82.9988,20.11,95,100,4.63,US,1727426592
111,tezu,27.9167,96.1667,24.94,90,100,0.42,IN,1727426593
112,guane,22.2025,-84.0875,24.93,94,100,0.94,CU,1727426596
113,kamakwie,9.5,-12.2333,24.22,93,100,1.48,SL,1727426597
114,smithers,54.7804,-127.1743,5.18,100,100,1.03,CA,1727426599
115,arraial do cabo,-22.9661,-42.0278,22.17,85,0,10.01,BR,1727426600
116,boca do acre,-8.7522,-67.3978,21.54,97,28,1.1,BR,1727426601
117,kununurra,-15.7667,128.7333,34.99,43,48,2.06,AU,1727426603
118,hawaiian paradise park,19.5933,-154.9731,22.73,97,100,1.54,US,1727426604
119,zemio,5.0314,25.1361,31.11,53,32,0.67,CF,1727426606
120,sao tome,0.3365,6.7273,26.28,82,96,3.5,ST,1727426608
121,holualoa,19.6228,-155.9522,24.91,83,0,2.06,US,1727426610
122,enewetak,11.3474,162.3373,29.14,75,100,6.15,MH,1727426611
123,st. john's,47.5649,-52.7093,11.1,96,75,1.79,CA,1727426613
124,thompson,55.7435,-97.8558,12.09,71,75,7.72,CA,1727426615
125,nova sintra,14.8667,-24.7167,27.06,81,100,2.9,CV,1727426617
126,labrador city,52.9463,-66.9114,8.99,86,100,4.92,CA,1727426618
127,beloyarskiy,63.7119,66.6722,14.15,66,65,2.42,RU,1727426620
128,mazagao,-0.115,-51.2894,23.35,93,66,1.56,BR,1727426621
129,taitung city,22.7583,121.1444,26.15,100,75,3.09,TW,1727426622
130,vilyuchinsk,52.9306,158.4028,9.15,82,100,0.46,RU,1727426624
131,hami,42.8,93.45,23.66,26,100,1.07,CN,1727426625
132,el bauga,18.262,33.9081,40.51,17,45,3.17,SD,1727426626
133,fortaleza,-3.7227,-38.5247,26.07,73,40,6.17,BR,1727426628
134,vernon,50.2581,-119.2691,13.85,60,92,1.54,CA,1727426629
135,talnakh,69.4865,88.3972,1.26,97,100,4.18,RU,1727426631
136,kingston,17.997,-76.7936,27.53,83,20,2.06,JM,1727426632
137,allapalli,19.4167,80.0667,28.15,93,100,2.87,IN,1727426633
138,devonport,-41.1667,146.35,11.96,87,87,1.46,AU,1727426635
139,san pedro pochutla,15.7333,-96.4667,23.73,91,100,1.73,MX,1727426636
140,cudillero,43.5622,-6.1459,14.72,71,75,6.17,ES,1727426638
141,mil'kovo,55.6078,37.7956,19.63,56,100,10.0,RU,1727426639
142,laojunmiao,39.8333,97.7333,20.72,26,69,4.51,CN,1727426640
143,marquette,46.5333,-87.6335,16.05,92,0,1.34,US,1727426642
144,kemijarvi,66.7131,27.4306,7.63,86,100,2.32,FI,1727426643
145,carnarvon,-24.8667,113.6333,20.15,71,7,10.88,AU,1727426646
146,jamestown,42.097,-79.2353,15.8,94,0,3.09,US,1727426647
147,al manaqil,14.2459,32.9891,34.72,39,28,5.5,SD,1727426649
148,gizo,-8.103,156.8419,28.0,75,96,1.31,SB,1727426650
149,port saint john's,-31.6229,29.5448,21.11,59,69,3.12,ZA,1727426652
150,puerto ayacucho,5.6639,-67.6236,23.49,92,100,1.58,VE,1727426653
151,tawau,4.2498,117.8871,31.07,70,0,3.13,MY,1727426656
152,mhamid,29.82,-5.72,28.47,24,10,0.81,MA,1727426657
153,tekeli,44.83,78.8239,8.4,33,1,5.2,KZ,1727426659
154,geraldton,-28.7667,114.6,18.23,59,75,9.77,AU,1727426660
155,tosontsengel,48.7567,98.2839,8.13,47,56,4.44,MN,1727426661
156,stanley,54.868,-1.6985,9.04,85,40,8.23,GB,1727426663
157,antsiranana,-12.2787,49.2917,30.42,35,20,7.2,MG,1727426664
158,janeng,-25.4167,25.55,29.81,9,20,4.97,BW,1727426666
159,acapulco de juarez,16.8634,-99.8901,21.93,97,100,8.39,MX,1727426377
160,port mathurin,-19.6833,63.4167,22.39,80,35,7.51,MU,1727426668
161,macapa,0.0389,-51.0664,25.99,94,0,2.57,BR,1727426670
162,vezirkopru,41.1436,35.4547,26.03,43,0,1.47,TR,1727426671
163,nizhneudinsk,54.9076,99.0276,5.25,61,97,1.97,RU,1727426673
164,meadow lake,34.8014,-106.5436,20.71,34,0,0.75,US,1727426674
165,okhotsk,59.3833,143.3,6.88,84,3,2.36,RU,1727426675
166,petropavlovsk-kamchatsky,53.0452,158.6483,8.33,76,0,2.0,RU,1727426677
167,la passe,45.5549,-0.8967,15.86,69,71,11.41,FR,1727426678
168,bikenibeu village,1.3673,173.1241,28.98,74,20,3.09,KI,1727426679
169,darnah,32.767,22.6367,26.11,66,1,6.86,LY,1727426681
170,nehe,48.4833,124.8333,18.68,39,88,6.02,CN,1727426682
171,papao,-17.75,-149.55,25.82,77,3,1.3,PF,1727426685
172,fortuna,40.5982,-124.1573,9.08,100,0,2.06,US,1727426686
173,yuzhno-kurilsk,44.0306,145.8556,16.47,99,100,2.37,RU,1727426688
174,kone,-21.0595,164.8658,21.21,74,100,1.88,NC,1727426689
175,tromso,69.6496,18.957,6.01,70,40,4.63,NO,1727426691
176,abepura,-2.6333,140.5833,29.45,70,20,3.09,ID,1727426692
177,margaret river,-33.95,115.0667,13.1,53,56,8.1,AU,1727426693
178,konarka,19.9,86.1167,29.9,76,96,7.29,IN,1727426695
179,nar'yan-mar,67.6713,53.087,11.69,91,100,8.72,RU,1727426696
180,guerrero negro,27.9769,-114.0611,18.07,92,14,7.29,MX,1727426698
181,tidjikja,18.5564,-11.4271,31.3,36,100,2.88,MR,1727426699
182,qamdo,31.1667,97.2333,15.13,45,82,3.55,CN,1727426700
183,fada n'gourma,12.0622,0.3578,28.72,70,10,3.13,BF,1727426702
184,haiku-pauwela,20.9219,-156.3051,25.01,77,100,5.66,US,1727426703
185,beau vallon,-20.4189,57.6953,25.13,69,75,6.69,MU,1727426705
186,bubaque,11.2833,-15.8333,26.44,80,100,1.84,GW,1727426706
187,sandnessjoen,66.0217,12.6316,5.23,87,75,3.6,NO,1727426707
188,bandar lampung,-5.4254,105.258,30.14,59,21,2.94,ID,1727426709
189,necochea,-38.5473,-58.7368,5.08,67,2,4.87,AR,1727426710
190,quellon,-43.1167,-73.6167,5.97,92,100,8.86,CL,1727426712
191,long beach,33.767,-118.1892,17.03,92,75,2.57,US,1727426713
192,ujae,8.9322,165.7642,29.1,76,100,5.35,MH,1727426714
193,anna regina,7.2644,-58.5077,27.1,78,100,3.22,GY,1727426716
194,zhosaly,45.4878,64.0781,17.45,14,0,8.86,KZ,1727426718
195,cowra,-33.8333,148.6833,10.8,59,0,4.97,AU,1727426720
196,asau,46.4333,26.4,26.14,32,0,2.21,RO,1727426722
197,borogontsy,62.6683,131.1683,3.82,94,100,4.36,RU,1727426723
198,remire-montjoly,4.9167,-52.2667,23.02,100,100,0.51,GF,1727426726
199,holmsund,63.706,20.3641,5.97,93,100,2.57,SE,1727426727
200,lompoc,34.6391,-120.4579,13.96,95,100,0.45,US,1727426728
201,prince george,53.9166,-122.753,9.69,66,100,8.75,CA,1727426730
202,northam,51.0333,-4.2167,11.45,84,99,9.69,GB,1727426731
203,kiunga,-6.1219,141.2906,24.19,98,64,1.06,PG,1727426733
204,puerto cabezas,14.0351,-83.3888,23.76,97,100,2.03,NI,1727426735
205,isabela,6.7085,121.9711,31.03,75,9,3.0,PH,1727426736
206,antofagasta,-23.65,-70.4,14.6,90,86,0.19,CL,1727426737
207,gadzhiyevo,69.2551,33.3362,6.92,88,100,4.41,RU,1727426739
208,noosa heads,-26.3833,153.15,19.07,72,45,7.83,AU,1727426740
209,forbes,-33.3833,148.0167,11.86,48,6,4.69,AU,1727426742
210,lazaro cardenas,17.9583,-102.2,26.13,96,100,9.88,MX,1727426743
211,tura,25.5198,90.2201,24.7,97,93,0.96,IN,1727426744
212,canutama,-6.5339,-64.3831,21.72,92,18,0.97,BR,1727426746
213,tazovsky,67.4667,78.7,2.2,74,100,8.55,RU,1727426748
214,adrar,20.5022,-10.0711,32.93,29,100,8.74,MR,1727426749
215,ialibu,-6.2821,143.9935,15.51,99,100,0.78,PG,1727426751
216,kavaratti,10.5669,72.642,27.5,80,100,6.9,IN,1727426752
217,port lincoln,-34.7333,135.8667,14.71,64,42,5.7,AU,1727426754
218,lata,40.1629,-8.3327,15.67,73,35,4.36,PT,1727426755
219,cestos city,5.46,-9.5828,25.81,84,81,2.53,LR,1727426758
220,basco,20.4487,121.9702,29.35,76,100,6.95,PH,1727426759
221,karratha,-20.7377,116.8463,26.34,49,0,8.82,AU,1727426761
222,sitka,57.0531,-135.33,7.94,76,75,0.0,US,1727426762
223,al bawiti,28.3492,28.8659,28.77,36,0,4.85,EG,1727426763
224,shiprock,36.7855,-108.687,21.64,28,0,1.4,US,1727426765
225,weno,7.4515,151.8468,27.97,83,40,0.0,FM,1727426766
226,blenheim,-41.516,173.9528,8.62,81,97,0.82,NZ,1727426768
227,hithadhoo,-0.6,73.0833,28.29,74,93,5.95,MV,1727426769
228,aroma,15.8167,36.1333,34.51,38,8,5.19,SD,1727426771
229,codrington,-38.2667,141.9667,9.01,83,7,4.84,AU,1727426772
230,gargalianoi,37.0667,21.6333,24.66,56,0,4.13,GR,1727426775
231,yuanping,38.7153,112.7575,20.15,63,95,3.37,CN,1727426776
232,ritchie,-29.038,24.6028,21.68,17,100,1.46,ZA,1727426779
233,hamilton,39.1834,-84.5333,20.79,95,100,8.23,US,1727426781
234,zakynthos,37.7914,20.8953,25.62,65,20,2.57,GR,1727426782
235,katsuren-haebaru,26.3369,127.8719,30.01,81,75,5.14,JP,1727426783
236,ponta delgada,37.7333,-25.6667,22.4,83,75,2.57,PT,1727426785
237,los altos,37.3852,-122.1141,16.43,85,0,0.0,US,1727426786
238,atafu village,-8.5421,-172.5159,27.42,76,99,7.09,TK,1727426789
239,achacachi,-16.05,-68.6833,5.77,88,74,2.59,BO,1727426790
240,vadso,70.0744,29.7487,7.09,81,75,5.66,NO,1727426792
241,rapla,59.0072,24.7928,16.05,91,100,6.35,EE,1727426794
242,bereeda,11.8704,51.0579,32.37,55,23,2.17,SO,1727426795
243,brookings,44.3114,-96.7984,15.66,75,0,2.57,US,1727426796
244,dunedin,-45.8742,170.5036,7.67,83,100,2.24,NZ,1727426696
245,fort st. john,56.2499,-120.8529,4.94,93,100,1.54,CA,1727426800
246,ciudad rodrigo,40.6,-6.5333,13.96,64,5,3.87,ES,1727426801
247,ola,59.5833,151.2833,5.5,88,24,2.6,RU,1727426803
248,saint-joseph,-21.3667,55.6167,26.21,70,51,5.41,RE,1727426804
249,fale old settlement,-9.3852,-171.2468,27.28,74,100,6.25,TK,1727426805
250,mugia,43.1041,-9.2179,15.51,69,14,7.8,ES,1727426807
251,cabo san lucas,22.8909,-109.9124,27.64,59,12,5.43,MX,1727426808
252,melendugno,40.2747,18.3368,27.25,83,0,4.63,IT,1727426810
253,iskateley,67.6803,53.1512,11.73,90,100,8.72,RU,1727426811
254,nguigmi,14.2495,13.1092,34.14,28,5,1.65,NE,1727426812
255,mount gambier,-37.8333,140.7667,7.85,89,34,2.04,AU,1727426814
256,sumbe,-11.2061,13.8437,24.84,73,21,2.52,AO,1727426815
257,roma,43.2128,-75.4557,14.81,99,100,1.54,US,1727426817
258,nuuk,64.1835,-51.7216,6.34,75,75,0.51,GL,1727426820
259,hobyo,5.3505,48.5268,29.07,61,100,10.99,SO,1727426821
260,monaragala,6.8714,81.3487,30.65,56,76,5.01,LK,1727426823
261,knyaze-volkonskoye,48.4642,135.4567,16.19,70,95,1.61,RU,1727426824
262,zouerate,22.7187,-12.4521,30.53,36,99,3.34,MR,1727426825
263,comodoro rivadavia,-45.8667,-67.5,10.92,20,0,9.77,AR,1727426827
264,bengbu,32.9408,117.3608,26.64,63,90,4.44,CN,1727426828
265,mount isa,-20.7333,139.5,26.87,19,0,4.12,AU,1727426830
266,zheleznogorsk-ilimskiy,56.5768,104.1217,7.49,39,85,0.53,RU,1727426831
267,belmonte,-15.8631,-38.8828,23.16,73,46,2.55,BR,1727426832
268,hilo,19.7297,-155.09,22.85,95,100,1.54,US,1727426834
269,sisimiut,66.9395,-53.6735,6.51,87,100,3.81,GL,1727426835
270,lamu,-2.2717,40.902,27.69,63,77,5.49,KE,1727426836
271,ilhabela,-23.7781,-45.3581,21.41,91,51,4.31,BR,1727426838
272,bamboo flat,11.7,92.7167,30.05,79,40,2.06,IN,1727426839
273,galliano,29.4422,-90.2992,20.0,77,0,3.6,US,1727426841
274,tofol,5.3248,163.0078,28.72,71,8,1.62,FM,1727426842
275,gardnerville ranchos,38.8882,-119.7413,14.03,37,0,2.32,US,1727426843
276,saldanha,-33.0117,17.9442,16.03,81,100,5.21,ZA,1727426845
277,monts,47.2772,0.6247,14.64,75,0,7.2,FR,1727426846
278,masterton,-40.9597,175.6575,5.84,96,100,1.46,NZ,1727426847
279,prieska,-29.6641,22.7474,24.26,13,39,1.3,ZA,1727426849
280,flying fish cove,-10.4217,105.6791,26.82,73,75,5.14,CX,1727426850
281,erdenet,49.0333,104.0833,5.01,60,100,3.14,MN,1727426804
282,weyburn,49.6668,-103.8511,4.12,93,0,0.0,CA,1727426853
283,el salto,20.3333,-104.5,16.92,80,100,1.58,MX,1727426854
284,yokadouma,3.5167,15.05,25.15,78,100,1.75,CM,1727426856
285,greenwood,34.1668,-82.1165,24.09,52,100,5.14,US,1727426857
286,tolanaro,-25.0319,46.9987,29.04,65,20,6.17,MG,1727426859
287,labytnangi,66.6572,66.4183,11.21,78,86,4.97,RU,1727426860
288,queenstown,-31.8976,26.8753,20.56,25,78,4.55,ZA,1727426861
289,vila franca do campo,37.7167,-25.4333,22.23,80,62,2.68,PT,1727426863
290,tibati,6.4667,12.6333,24.61,81,98,0.94,CM,1727426864
291,aasiaat,68.7098,-52.8699,3.28,80,100,4.3,GL,1727426865
292,kudahuvadhoo,2.6708,72.8944,28.72,72,100,7.46,MV,1727426867
293,puerto deseado,-47.7503,-65.8938,8.77,50,100,10.47,AR,1727426868
294,keminmaa,65.8596,24.8228,6.87,100,100,3.09,FI,1727426870
295,lae,-6.7221,146.9847,24.61,85,87,2.46,PG,1727426873
296,peterhead,57.5058,-1.7981,9.26,70,95,12.27,GB,1727426874
297,point pedro,9.8167,80.2333,31.48,61,51,2.97,LK,1727426875
298,mount pearl,47.5166,-52.7813,10.64,97,75,1.79,CA,1727426877
299,clear lake,43.138,-93.3794,13.31,75,0,1.84,US,1727426878
300,puerto leguizamo,-0.1934,-74.7819,21.36,96,90,1.21,CO,1727426880
301,margherita,27.2833,95.6833,26.93,92,92,0.49,IN,1727426881
302,hulan,45.9833,126.6,16.58,59,95,2.97,CN,1727426882
303,chifeng,42.2683,118.9636,20.35,60,6,2.67,CN,1727426884
304,krivosheino,57.3431,83.9261,4.79,73,100,3.37,RU,1727426885
305,kiffa,16.6166,-11.4045,30.35,56,100,4.73,MR,1727426886
306,thinadhoo,0.5333,72.9333,28.35,77,100,6.8,MV,1727426888
307,spring creek,40.7266,-115.5859,14.34,23,0,1.69,US,1727426889
308,zhezqazghan,47.7833,67.7667,14.32,23,0,5.0,KZ,1727426891
309,pueblo nuevo,23.3833,-105.3833,11.57,71,11,3.77,MX,1727426892
310,cooma,-36.2333,149.1333,4.67,85,0,2.09,AU,1727426893
311,aconibe,1.2968,10.9369,21.34,95,100,0.98,GQ,1727426895
312,hsinchu,24.8036,120.9686,28.83,75,27,2.24,TW,1727426896
313,macclenny,30.2822,-82.1221,27.2,86,100,7.8,US,1727426679
314,vangaindrano,-23.35,47.6,27.4,56,4,4.96,MG,1727426899
315,luderitz,-26.6481,15.1594,23.36,42,98,8.27,NA,1727426900
316,bunawan,8.1667,126.0833,24.93,97,79,1.08,PH,1727426902
317,mundybash,53.211,87.2983,2.38,98,100,2.53,RU,1727426903
318,semnan,35.5729,53.3971,24.78,35,31,4.05,IR,1727426904
319,beira,-19.8436,34.8389,27.05,74,40,4.12,MZ,1727426906
320,magadan,59.5667,150.8,5.37,85,8,2.81,RU,1727426907
321,malvan,16.0667,73.4667,28.0,82,100,6.81,IN,1727426909
322,talcahuano,-36.7167,-73.1167,5.82,93,0,1.03,CL,1727426910
323,sao joao da barra,-21.6403,-41.0511,22.0,82,0,8.02,BR,1727426911
324,igarka,67.4667,86.5833,3.44,76,100,5.18,RU,1727426913
325,saint-pierre,-21.3393,55.4781,26.82,65,75,3.6,RE,1727426914
326,sirte,31.2089,16.5887,27.1,53,0,1.77,LY,1727426916
327,wick,58.4333,-3.0833,8.03,76,72,7.72,GB,1727426917
328,talavera,15.6167,120.9333,26.64,90,100,3.92,PH,1727426918
329,colonia,50.9333,6.95,15.59,81,75,4.12,DE,1727426920
330,kirakira,-10.4544,161.9205,26.08,87,8,5.44,SB,1727426921
331,san francisco ixhuatan,16.3569,-94.4825,24.47,91,100,0.36,MX,1727426923
332,beloslav,43.1833,27.7,28.81,65,40,4.63,BG,1727426924
333,zhizdra,53.746,34.7395,18.56,61,100,8.0,RU,1727426925
334,tazacorte,28.629,-17.9293,23.54,89,40,4.63,ES,1727426927
335,klyuchi,52.2667,79.1667,9.61,35,100,4.01,RU,1727426928
336,mpongwe,-13.5091,28.155,34.0,11,5,3.07,ZM,1727426929
337,tashtyp,52.7939,89.8983,5.3,54,100,5.21,RU,1727426931
338,san-pedro,4.7485,-6.6363,24.54,93,100,2.63,CI,1727426932
339,wodonga,-36.1167,146.8833,11.65,100,0,0.94,AU,1727426934
340,afif,23.9065,42.9172,35.33,13,2,1.91,SA,1727426935
341,aras-asan,8.8908,126.3033,27.61,81,62,1.86,PH,1727426936
342,n'zeto,-7.2312,12.8666,26.68,68,46,2.88,AO,1727426938
343,oodweyne,9.4092,45.064,31.42,33,64,7.61,SO,1727426939
344,castillos,-34.1667,-53.8333,11.2,96,2,2.43,UY,1727426941
345,alotau,-10.3069,150.4462,24.68,95,58,1.43,PG,1727426942
346,werne,51.6645,7.6342,15.08,69,20,7.72,DE,1727426943
347,majene,-3.5403,118.9707,27.77,75,76,2.37,ID,1727426946
348,yinchuan,38.4681,106.2731,27.0,44,88,2.14,CN,1727426947
349,myeik,12.4333,98.6,29.55,72,100,1.43,MM,1727426949
350,faya-largeau,17.9257,19.1043,34.94,20,0,9.77,TD,1727426950
351,al quwayrah,29.8004,35.3116,29.48,25,0,1.26,JO,1727426952
352,pisco,-13.7,-76.2167,17.03,82,100,2.57,PE,1727426953
353,nadi,-17.8,177.4167,25.0,69,40,1.54,FJ,1727426869
354,gafsa,34.425,8.7842,27.12,50,0,1.03,TN,1727426956
355,shush,32.1942,48.2436,39.3,10,0,2.18,IR,1727426958
356,delta del tigre,-34.7633,-56.3853,10.1,90,0,2.56,UY,1727426960
357,al jawf,29.5,38.75,34.54,17,0,2.46,SA,1727426961
358,ulladulla,-35.35,150.4667,11.39,70,13,1.54,AU,1727426962
359,chibougamau,49.9168,-74.3659,12.79,100,100,2.06,CA,1727426964
360,trairi,-3.2778,-39.2689,24.68,79,100,5.3,BR,1727426965
361,ternate,0.8,127.4,27.56,75,100,0.64,ID,1727426967
362,laguna,38.421,-121.4238,17.25,78,0,1.54,US,1727426968
363,moranbah,-22.0016,148.0466,24.79,24,0,4.08,AU,1727426969
364,mandalgovi,45.7625,106.2708,18.79,39,100,4.43,MN,1727426971
365,tangalle,6.024,80.7911,31.95,57,83,7.81,LK,1727426972
366,tougue,11.4667,-11.6,20.38,98,100,0.79,GN,1727426974
367,sinabang,2.4803,96.3801,29.63,69,83,2.39,ID,1727426975
368,ust-nera,64.5667,143.2,1.82,81,98,2.11,RU,1727426978
369,piti village,13.4626,144.6933,29.49,78,0,2.57,GU,1727426979
370,cadale,2.7603,46.3222,27.86,69,44,9.19,SO,1727426981
371,awjilah,29.1081,21.2869,28.82,44,0,3.67,LY,1727426982
372,kimbe,-5.5502,150.1429,26.41,87,41,0.54,PG,1727426983
373,galle,6.0367,80.217,27.91,80,41,7.46,LK,1727426985
374,mangrul pir,20.3167,77.35,28.62,76,95,6.44,IN,1727426986
375,moroto,2.5345,34.6666,28.76,36,48,1.22,UG,1727426987
376,sinop,41.7711,34.8709,23.7,53,3,2.92,TR,1727426989
377,egilsstadir,65.2653,-14.3948,0.95,86,75,5.14,IS,1727426990
378,altamira,-3.2033,-52.2064,22.79,78,66,1.42,BR,1727426992
379,playa del ingles,27.7567,-15.5787,23.86,81,73,2.03,ES,1727426993
380,verkhnevilyuysk,63.4453,120.3167,5.07,67,48,1.24,RU,1727426994
381,martapura,-3.4167,114.85,30.9,57,100,1.09,ID,1727426996
382,chonchi,-42.6128,-73.8092,6.73,97,100,3.31,CL,1727426997
383,tralee,52.2704,-9.7026,10.14,81,40,3.6,IE,1727426999
384,jutai,-5.1833,-68.9,22.38,93,100,1.36,BR,1727427000
385,dellys,36.9172,3.9131,25.03,67,10,5.45,DZ,1727427001
386,ryotsu-minato,38.0833,138.4333,20.8,78,99,4.92,JP,1727427003
387,alice springs,-23.7,133.8833,25.75,22,13,4.63,AU,1727427004
388,bijie,27.3125,105.2942,24.36,70,95,6.01,CN,1727427006
389,bata,1.8639,9.7658,25.3,86,100,2.22,GQ,1727427007
390,mutare,-18.9707,32.6709,34.18,9,0,4.12,ZW,1727427008
391,ghat,24.9647,10.1728,34.09,24,16,2.87,LY,1727427010
392,lokhvytsya,50.3678,33.2602,23.66,41,100,9.11,UA,1727427011
393,crane,31.3974,-102.3501,20.84,51,0,3.36,US,1727427012
394,la ronge,55.1001,-105.2842,8.14,81,0,3.6,CA,1727427014
395,coahuayana de hidalgo,18.7,-103.6583,22.39,98,100,2.6,MX,1727427015
396,port alberni,49.2413,-124.8028,13.85,89,99,4.47,CA,1727427017
397,rio grande,-32.035,-52.0986,15.31,93,91,6.45,BR,1727427018
398,hadibu,12.65,54.0333,27.74,74,61,8.0,YE,1727427019
399,corumba,-19.0092,-57.6533,19.89,75,5,2.48,BR,1727427021
400,dolinsk,47.35,142.8,11.21,99,49,1.17,RU,1727427022
401,massena,44.9281,-74.8919,13.81,100,100,0.0,US,1727427024
402,karymskoye,51.6167,114.35,10.21,39,100,2.51,RU,1727427025
403,bull savanna,17.8868,-77.5902,25.24,86,21,4.16,JM,1727427026
404,suva,-18.1416,178.4415,23.71,73,75,5.14,FJ,1727427028
405,port blair,11.6667,92.75,30.02,79,40,2.06,IN,1727427029
406,minas de matahambre,22.5887,-83.9447,24.37,94,100,1.85,CU,1727427030
407,kailua-kona,19.6406,-155.9956,26.98,75,0,2.06,US,1727426953
408,labuan,5.2767,115.2417,30.2,79,20,1.54,MY,1727427033
409,selfoss,63.9331,-20.9971,3.91,81,98,2.37,IS,1727427035
410,az zuwaytinah,30.9522,20.1202,26.24,59,0,3.29,LY,1727427036
411,varoska rijeka,45.0847,16.0142,23.85,55,21,4.19,BA,1727427037
412,valparaiso,-33.0393,-71.6273,6.8,87,0,1.03,CL,1727427039
413,askoy,60.4092,5.226,9.87,71,0,5.14,NO,1727427040
414,alofi,-19.0595,-169.9187,22.94,78,100,5.66,NU,1727427042
415,campoverde,-8.4753,-74.8058,26.83,91,100,0.9,PE,1727427043
416,ocean shores,46.9737,-124.1563,14.97,97,100,2.51,US,1727427044
417,bilariaganj,26.1986,83.2333,25.05,94,100,5.15,IN,1727427046
418,callao,-12.0667,-77.15,17.16,77,100,2.57,PE,1727427047
419,gallipoli,40.4103,26.6708,26.23,28,0,5.02,TR,1727427049
420,new norfolk,-42.7826,147.0587,11.07,91,95,0.93,AU,1727427050
421,fuyang,32.9,115.8167,26.72,62,45,4.54,CN,1727427051
422,san juan,-31.5375,-68.5364,12.39,34,0,2.32,AR,1727427053
423,nuevitas,21.5453,-77.2644,25.22,91,100,1.25,CU,1727427054
424,augusta,48.3667,10.8833,17.39,77,0,3.6,DE,1727427055
425,jincheng,35.5022,112.8328,22.25,62,94,6.75,CN,1727427057
426,cartagena,10.3997,-75.5144,25.79,94,40,1.03,CO,1727427058
427,eyl,7.9803,49.8164,33.87,39,100,11.49,SO,1727427060
428,fisterra,42.9049,-9.2629,15.75,67,11,8.58,ES,1727427061
429,illizi,26.4833,8.4667,35.53,22,0,4.15,DZ,1727427062
430,santo antonio,-6.3106,-35.4789,22.01,87,51,3.51,BR,1727427064
431,pahrump,36.2083,-115.9839,23.47,18,0,0.45,US,1727427065
432,kodinsk,58.6881,99.1844,3.23,75,100,2.58,RU,1727427067
433,meulaboh,4.1363,96.1285,29.16,72,70,3.5,ID,1727427068
434,walvis bay,-22.9575,14.5053,16.53,72,66,5.66,NA,1727427069
435,kolokani,13.5728,-8.0339,25.53,76,100,0.98,ML,1727427071
436,kolonia,50.9333,6.95,15.59,81,75,4.12,DE,1727427072
437,cayeli,41.0923,40.7292,22.96,76,57,2.46,TR,1727427073
438,guanica,17.9716,-66.908,27.7,64,61,1.65,PR,1727427075
439,idri,27.5,13.2667,30.44,27,97,5.1,LY,1727427076
440,westport,41.1415,-73.3579,18.79,90,100,2.57,US,1727427078
441,bardai,11.65,7.2333,28.54,61,86,1.97,NG,1727427079
442,katabu,-4.9333,122.5167,29.48,60,73,3.43,ID,1727427080
443,ribeira brava,32.65,-17.0667,24.35,73,17,0.75,PT,1727427082
444,lucea,18.451,-78.1736,26.59,83,0,1.88,JM,1727427083
445,yelizovo,53.1873,158.3805,9.08,76,0,2.0,RU,1727427085
446,lakatoro,-16.0999,167.4164,24.69,81,16,4.64,VU,1727427086
447,foca,38.6703,26.7566,26.92,51,0,2.96,TR,1727427087
448,hammerfest,70.6634,23.6821,6.25,75,75,6.17,NO,1727427089
449,sohar,24.3643,56.7468,34.01,66,99,4.12,OM,1727427090
450,morro do chapeu,-11.55,-41.1561,14.75,89,100,4.41,BR,1727427091
451,kenai,60.5544,-151.2583,7.05,91,100,3.09,US,1727427093
452,marquelia,16.5833,-98.8167,23.68,98,100,2.21,MX,1727427094
453,adh dhibiyah,24.5014,45.9686,36.87,13,42,4.37,SA,1727427096
454,afaahiti,-17.75,-149.2833,25.2,82,14,3.82,PF,1727427097
455,umm kaddadah,13.6017,26.6876,34.67,21,11,3.56,SD,1727427098
456,san patricio,28.017,-97.5169,20.97,54,0,3.08,US,1727427100
457,providence,41.824,-71.4128,17.59,93,100,1.54,US,1727427101
458,jinjiang,24.8198,118.5741,27.47,82,73,4.11,CN,1727427103
459,calvinia,-31.4707,19.776,17.9,36,0,0.51,ZA,1727427104
460,kill devil hills,36.0307,-75.676,25.01,93,0,3.6,US,1727427105
461,betio village,1.358,172.9211,29.02,68,7,3.54,KI,1727427108
462,ulimang,7.6242,134.6421,28.61,73,9,2.83,PW,1727427110
463,kargasok,59.0556,80.8572,3.29,77,100,2.93,RU,1727427111
464,kapuskasing,49.4169,-82.4331,7.0,100,0,0.0,CA,1727427112
465,okha,53.5739,142.9478,10.19,81,97,3.31,RU,1727427114
466,puerto aysen,-45.4,-72.7,3.53,99,98,2.15,CL,1727427115
467,tommot,58.9564,126.2925,4.1,81,100,2.57,RU,1727427117
468,kitimat,54.0524,-128.6534,6.62,28,100,1.37,CA,1727427118
469,hirara,24.8,125.2833,29.92,79,75,7.72,JP,1727427119
470,tshabong,-26.05,22.45,27.73,10,8,1.47,BW,1727427121
471,quang ngai,15.1167,108.8,29.52,72,100,2.75,VN,1727427122
472,teluknaga,-6.0989,106.6381,33.02,55,20,6.71,ID,1727427123
473,notodden,59.5594,9.2585,8.2,81,20,1.34,NO,1727427125
474,robertsport,6.7533,-11.3686,25.15,89,100,2.88,LR,1727427126
475,visby,57.6409,18.296,16.12,82,40,8.75,SE,1727427128
476,sudislavl',57.8817,41.7083,19.21,39,100,7.37,RU,1727427131
477,halmeu,47.9667,23.0167,22.7,50,64,5.65,RO,1727427132
478,newman,37.3138,-121.0208,17.24,78,0,1.64,US,1727427133
479,buta,2.7858,24.73,29.81,58,100,1.54,CD,1727427135
480,kattivakkam,13.2167,80.3167,33.41,78,100,6.65,IN,1727427136
481,jayapura,-2.5333,140.7,29.66,83,60,1.85,ID,1727427138
482,reggane,26.7158,0.1714,35.56,21,2,2.26,DZ,1727427139
483,susuman,62.7833,148.1667,2.49,69,3,1.62,RU,1727427140
484,camiri,-20.05,-63.5167,15.8,66,100,0.65,BO,1727427142
485,boa vista,2.8197,-60.6733,26.99,83,40,2.06,BR,1727427143
486,natal,-5.795,-35.2094,22.12,88,75,2.06,BR,1727427145
487,ugoofaaru,5.6667,73.0,27.34,85,28,6.16,MV,1727427146
488,eilat,29.5581,34.9482,30.91,51,0,6.17,IL,1727427147
489,grand falls-windsor,48.9332,-55.6649,6.84,94,100,1.51,CA,1727427149
490,novoarkhanhel's'k,48.658,30.8182,25.91,41,58,8.56,UA,1727427150
491,entebbe,0.0644,32.4469,26.7,52,59,2.66,UG,1727427151
492,vicam,27.6333,-110.2833,30.3,17,0,3.12,MX,1727427153
493,dundaga,57.5167,22.35,14.19,92,100,4.5,LV,1727427154
494,lorengau,-2.0226,147.2712,27.68,75,91,1.23,PG,1727427156
495,sabha,27.0377,14.4283,31.56,26,1,3.92,LY,1727427157
496,praia da vitoria,38.7333,-27.0667,22.14,88,40,4.19,PT,1727427158
497,dakhla,23.6848,-15.958,22.01,83,40,3.6,EH,1727427161
498,yigo village,13.5361,144.8886,28.62,82,0,3.6,GU,1727427163
499,watsa,3.0372,29.5355,28.11,56,52,1.45,CD,1727427164
500,fauske,67.2588,15.3918,7.19,80,48,1.89,NO,1727427165
501,amga,60.8953,131.9608,9.8,91,100,4.7,RU,1727427167
502,ivanteyevka,55.9711,37.9208,21.32,41,100,8.52,RU,1727427168
503,port augusta,-32.5,137.7667,18.32,23,13,4.47,AU,1727427170
504,ilongero,-4.6667,34.8667,28.18,25,48,3.41,TZ,1727427171
505,tari,-11.1105,14.3559,25.93,49,19,2.37,AO,1727427172
506,mili,6.0815,171.735,28.89,74,19,3.45,MH,1727427174
507,sterling,39.0062,-77.4286,22.53,85,100,0.0,US,1727427175
508,brady,31.1352,-99.3351,16.25,77,0,1.54,US,1727427177
509,el calafate,-50.3408,-72.2768,4.94,78,26,1.63,AR,1727427178
510,santa cruz,-17.8,-63.1667,20.7,64,75,7.72,BO,1727427179
511,trinidad,-14.8333,-64.9,21.82,52,0,4.17,BO,1727427181
512,berdigestyakh,62.0989,126.6992,2.02,98,100,3.57,RU,1727427182
513,pechora,65.1472,57.2244,15.68,60,98,7.0,RU,1727427183
514,howrah,22.5892,88.3103,31.0,79,75,3.09,IN,1727427185
515,mana,5.6592,-53.7767,25.34,91,65,2.64,GF,1727427186
516,mangrol,21.1167,70.1167,25.84,92,100,6.05,IN,1727427188
517,selebi-phikwe,-21.979,27.8498,34.35,15,4,5.47,BW,1727427189
518,leh,34.1667,77.5833,13.98,25,65,1.93,IN,1727427190
519,fort bragg,35.139,-79.006,24.95,95,100,5.14,US,1727427192
520,najran,17.4924,44.1277,31.89,14,85,5.98,SA,1727427193
521,san andres,12.5847,-81.7006,28.01,89,20,1.03,CO,1727427195
522,shache,38.4167,77.2406,30.44,13,59,3.96,CN,1727427196
523,i-n-salah,27.1935,2.4607,35.78,22,0,4.92,DZ,1727427197
524,kipushi,-11.7667,27.2333,31.45,14,2,3.19,CD,1727427199
525,iwanai,42.9744,140.5089,17.82,87,38,2.28,JP,1727427200
526,kadnikov,59.5022,40.338,17.01,49,100,6.49,RU,1727427202
527,coquimbo,-29.9533,-71.3436,11.85,100,100,1.54,CL,1727427203
528,wuchang,44.9143,127.15,15.16,70,21,2.55,CN,1727427204
529,banikoara,11.2985,2.4386,27.99,74,10,2.03,BJ,1727427206
530,prince rupert,54.3161,-130.3201,8.83,93,100,7.2,CA,1727427207
531,asola,45.2211,10.4136,23.92,79,49,1.71,IT,1727427209
532,sao felix do xingu,-6.6447,-51.995,25.25,66,73,0.63,BR,1727427210
533,kuusamo,65.9667,29.1833,7.02,87,0,2.06,FI,1727427213
534,brokopondo,4.75,-55.1667,25.35,86,81,2.82,SR,1727427214
535,key west,24.5557,-81.7826,30.0,87,75,10.8,US,1727427216
536,princeville,45.7668,-61.2985,12.65,98,100,2.57,CA,1727427217
537,fada,7.25,4.0667,24.37,88,40,0.0,NG,1727427218
538,yarmouth,41.7057,-70.2286,16.67,97,100,2.06,US,1727427220
539,medzilaborce,49.2719,21.9007,19.58,68,100,5.72,SK,1727427221
540,port victoria,0.0939,33.9756,25.47,54,41,2.76,KE,1727427222
541,belle fourche,44.6714,-103.8522,16.91,43,0,2.42,US,1727427013
542,ta`u,-14.2336,-169.5144,26.05,77,100,6.19,AS,1727427225
543,pampas,-12.4,-74.9,7.37,88,96,2.01,PE,1727427227
544,timbuktu,16.7735,-3.0074,34.69,35,0,3.02,ML,1727427228
545,thasra,22.8,73.2167,30.78,69,100,2.01,IN,1727427229
546,manggar,-2.8833,108.2667,29.16,69,77,4.42,ID,1727427231
547,bonthe,7.5264,-12.505,26.57,84,100,4.25,SL,1727427232
548,mejit,10.2753,170.8646,28.63,78,17,6.06,MH,1727427234
549,rurrenabaque,-14.4413,-67.5278,20.26,97,96,1.14,BO,1727427235
550,villa de arista,22.65,-100.8333,16.63,91,71,1.54,MX,1727427236
551,machachi,-0.5,-78.5667,7.09,86,100,2.77,EC,1727427238
552,bonyhad,46.2992,18.5302,25.17,47,4,2.27,HU,1727427239
553,slobodskoy,58.7322,50.1772,19.4,26,65,5.11,RU,1727427240
554,minas de marcona,-15.2119,-75.1103,9.92,91,92,4.4,PE,1727427242
